[{"c_city":"ABAKAN","c_lat":45.7744357,"c_lng":126.6327944},{"c_city":"AGANA NAS","c_lat":40.6835116,"c_lng":122.2613873},{"c_city":"Akita","c_lat":27.380751,"c_lng":115.850029},{"c_city":"Aksu","c_lat":40.3494443,"c_lng":81.1560131},{"c_city":"Al Maktom","c_lat":41.6141835,"c_lng":85.9858568},{"c_city":"Altay","c_lat":47.8901357,"c_lng":87.9262144},{"c_city":"Amsterdam Schiphol","c_lat":36.115906,"c_lng":120.392548},{"c_city":"Ankang","c_lat":32.7043704,"c_lng":109.0380446},{"c_city":"Anqing","c_lat":30.5378978,"c_lng":117.0587388},{"c_city":"Anshan","c_lat":41.1187437,"c_lng":123.0077633},{"c_city":"Anshun Huangguoshu","c_lat":25.9958872,"c_lng":105.674749},{"c_city":"Anyang","c_lat":36.1102667,"c_lng":114.3518065},{"c_city":"ASAHIKAWA","c_lat":32.798322,"c_lng":99.778749},{"c_city":"Astana","c_lat":44.055271,"c_lng":89.343483},{"c_city":"Aswan","c_lat":45.4530201,"c_lng":128.324879},{"c_city":"Athen","c_lat":31.1991852,"c_lng":121.3899737},{"c_city":"Auckland","c_lat":31.5832121,"c_lng":120.3068151},{"c_city":"Bahrain","c_lat":41.579128,"c_lng":119.271446},{"c_city":"BAISE","c_lat":23.5522547,"c_lng":108.9242744},{"c_city":"Baku","c_lat":31.183241,"c_lng":91.895599},{"c_city":"Bangkok","c_lat":23.0010288,"c_lng":113.1215893},{"c_city":"Bangui","c_lat":32.5074533,"c_lng":95.6734207},{"c_city":"Baoshan","c_lat":25.1204892,"c_lng":99.1779956},{"c_city":"Baotou","c_lat":40.6471194,"c_lng":109.8462385},{"c_city":"Barcelona","c_lat":41.115833,"c_lng":122.035759},{"c_city":"Bayannaoer","c_lat":40.7691799,"c_lng":107.4238067},{"c_city":"Beihai Fucheng","c_lat":21.4727182,"c_lng":109.1226279},{"c_city":"Beijing Capital","c_lat":39.9299858,"c_lng":116.395645},{"c_city":"Beijing Nanyuan","c_lat":39.9299858,"c_lng":116.395645},{"c_city":"Beirut","c_lat":22.2857971,"c_lng":114.1651422},{"c_city":"Bengbu","c_lat":32.9294989,"c_lng":117.3570799},{"c_city":"Berlin Schoenefeld","c_lat":29.5400026,"c_lng":106.4740603},{"c_city":"Berlin Tegel","c_lat":29.5400026,"c_lng":106.4740603},{"c_city":"BIJIE","c_lat":27.4085621,"c_lng":105.3333234},{"c_city":"Birmingham","c_lat":31.230722,"c_lng":121.4729},{"c_city":"Boston Massachusetts","c_lat":34.0341463,"c_lng":113.8271538},{"c_city":"Brasilia","c_lat":22.587897,"c_lng":113.8880382},{"c_city":"Budapest","c_lat":30.1698393,"c_lng":120.2762232},{"c_city":"Cairns","c_lat":37.5433171,"c_lng":121.4187091},{"c_city":"Cengekareng","c_lat":22.2814759,"c_lng":114.1980938},{"c_city":"Changbaishan","c_lat":42.4307502,"c_lng":128.1223774},{"c_city":"Changchun","c_lat":43.8983376,"c_lng":125.3136424},{"c_city":"Changde Taohua","c_lat":29.0121489,"c_lng":111.6537181},{"c_city":"Changdu Bangda","c_lat":31.1405756,"c_lng":97.1855816},{"c_city":"Changhai","c_lat":39.2601085,"c_lng":122.7482645},{"c_city":"Changsha City","c_lat":28.2134782,"c_lng":112.9793528},{"c_city":"Changsha Huanghua","c_lat":28.235848,"c_lng":113.1979203},{"c_city":"Changzhi","c_lat":36.2016644,"c_lng":113.1202921},{"c_city":"Changzhou","c_lat":31.7713967,"c_lng":119.981861},{"c_city":"Chaoyang","c_lat":39.9589532,"c_lng":116.5216949},{"c_city":"Chengdu Shuangliu","c_lat":30.4594775,"c_lng":104.0408994},{"c_city":"Chifeng","c_lat":42.2971123,"c_lng":118.9307612},{"c_city":"Chita","c_lat":38.566483,"c_lng":116.135437},{"c_city":"Chitose Airport","c_lat":22.7607041,"c_lng":112.6088472},{"c_city":"ChiZhou","c_lat":30.6600192,"c_lng":117.4944768},{"c_city":"Chongqing Jiangbei","c_lat":29.6193177,"c_lng":106.7136147},{"c_city":"CLARK","c_lat":31.3260236,"c_lng":120.8284944},{"c_city":"Dali","c_lat":25.6939666,"c_lng":100.219209},{"c_city":"Dalian","c_lat":38.9487099,"c_lng":121.5934778},{"c_city":"Dandong","c_lat":40.1290228,"c_lng":124.3385431},{"c_city":"DangYang","c_lat":31.2093163,"c_lng":112.4105622},{"c_city":"Daqing","c_lat":46.596709,"c_lng":125.0218397},{"c_city":"Darwin","c_lat":37.5433171,"c_lng":121.4187091},{"c_city":"Datong","c_lat":46.070051,"c_lng":124.6990774},{"c_city":"Dazhou Heshi","c_lat":31.147911,"c_lng":107.4415081},{"c_city":"Dehong","c_lat":24.4412397,"c_lng":98.5894343},{"c_city":"Delhi","c_lat":24.9432331,"c_lng":116.4890504},{"c_city":"Denpasar Bali Intl.","c_lat":30.64324,"c_lng":104.059761},{"c_city":"Detroit City","c_lat":23.0848403,"c_lng":113.3268933},{"c_city":"Detroit Metropolitan","c_lat":23.0848403,"c_lng":113.3268933},{"c_city":"Dhaka","c_lat":36.6307611,"c_lng":101.2779887},{"c_city":"dingxin","c_lat":39.6083143,"c_lng":118.1426289},{"c_city":"Diqin","c_lat":27.9073578,"c_lng":99.8315993},{"c_city":"Doha","c_lat":32.2588126,"c_lng":96.8833049},{"c_city":"Dongsheng","c_lat":39.8055859,"c_lng":109.7644193},{"c_city":"Dongying","c_lat":37.4086663,"c_lng":118.6126431},{"c_city":"Dubai","c_lat":32.9132592,"c_lng":115.8258268},{"c_city":"Dublin","c_lat":23.0192608,"c_lng":113.7604349},{"c_city":"Dunhuang","c_lat":40.3887715,"c_lng":94.1580418},{"c_city":"Enshi","c_lat":30.3089785,"c_lng":109.5174327},{"c_city":"Entebbe","c_lat":37.6518075,"c_lng":99.2082094},{"c_city":"erlianhaote","c_lat":43.4177805,"c_lng":111.9661784},{"c_city":"Essendon Airport","c_lat":37.5433171,"c_lng":121.4187091},{"c_city":"Foshan","c_lat":23.0350948,"c_lng":113.1340256},{"c_city":"Francisco Bangoy","c_lat":31.0770799,"c_lng":97.372581},{"c_city":"Frankfurt","c_lat":32.9033662,"c_lng":117.4337073},{"c_city":"FUKUE","c_lat":24.6747542,"c_lng":112.0137992},{"c_city":"Fukuoka","c_lat":31.236736,"c_lng":121.473063},{"c_city":"Fukushima","c_lat":22.7954967,"c_lng":113.7330521},{"c_city":"Fuyang","c_lat":32.9012113,"c_lng":115.8209323},{"c_city":"Fuzhou Changle","c_lat":25.9155384,"c_lng":119.5627198},{"c_city":"Ganzhou","c_lat":25.8452955,"c_lng":114.9359091},{"c_city":"GaoDong","c_lat":41.547623,"c_lng":122.077759},{"c_city":"GAOXIONG AIRPORT","c_lat":32.0362366,"c_lng":80.4504861},{"c_city":"GAYA BIHAR INDIA","c_lat":31.3045473,"c_lng":117.9201338},{"c_city":"Genf","c_lat":31.2005048,"c_lng":121.3754129},{"c_city":"Gimpo Airport","c_lat":22.8212018,"c_lng":108.3817689},{"c_city":"Goeteborg Saeve","c_lat":27.8403773,"c_lng":113.1625942},{"c_city":"gold beach","c_lat":37.5433171,"c_lng":121.4187091},{"c_city":"Golmud","c_lat":35.5809723,"c_lng":92.7016668},{"c_city":"Guanghan","c_lat":31.0064809,"c_lng":104.2984758},{"c_city":"Guanghua","c_lat":32.420655,"c_lng":111.7020403},{"c_city":"GuangYuan Panlong","c_lat":32.4410402,"c_lng":105.8196869},{"c_city":"Guangzhou Baiyun","c_lat":23.2945141,"c_lng":113.3313063},{"c_city":"Guilin","c_lat":25.2629012,"c_lng":110.2609201},{"c_city":"Guiyang","c_lat":26.6299067,"c_lng":106.7091771},{"c_city":"GUYUAN","c_lat":37.3213231,"c_lng":106.1554813},{"c_city":"Haikou Meilan","c_lat":20.0220713,"c_lng":110.3308018},{"c_city":"Hailar Dongshan","c_lat":49.2792455,"c_lng":120.0428821},{"c_city":"HAKODATE","c_lat":25.2825431,"c_lng":110.3049601},{"c_city":"Hami","c_lat":42.3444671,"c_lng":93.529373},{"c_city":"Hanamaki","c_lat":24.2741893,"c_lng":108.084961},{"c_city":"Handan","c_lat":36.6093079,"c_lng":114.4826939},{"c_city":"Hangzhou Xiaoshan","c_lat":30.1728938,"c_lng":120.3890807},{"c_city":"Hanzhong Guanxi","c_lat":33.081569,"c_lng":107.0454776},{"c_city":"Harbin","c_lat":45.7732246,"c_lng":126.6577169},{"c_city":"HDaKa","c_lat":36.6307611,"c_lng":101.2779887},{"c_city":"Hefei luogang","c_lat":31.7958374,"c_lng":117.318294},{"c_city":"Heihe","c_lat":50.2506901,"c_lng":127.5008303},{"c_city":"Hengyang","c_lat":26.8981644,"c_lng":112.5838188},{"c_city":"Hiroshima","c_lat":22.2839566,"c_lng":114.1949045},{"c_city":"Ho Chi Minh City","c_lat":23.1247399,"c_lng":109.4332604},{"c_city":"Hohhot","c_lat":40.8283189,"c_lng":111.6603505},{"c_city":"Hong Kong","c_lat":22.293586,"c_lng":114.1861241},{"c_city":"Hotan","c_lat":37.1533497,"c_lng":79.9158137},{"c_city":"Houston","c_lat":30.1614646,"c_lng":120.2864333},{"c_city":"HUAHIN","c_lat":22.2792232,"c_lng":114.185805},{"c_city":"Huai an","c_lat":33.6065127,"c_lng":119.0301864},{"c_city":"Huaihua Zhijiang","c_lat":27.5574829,"c_lng":109.9869588},{"c_city":"Huangshan Tunxi","c_lat":29.7263635,"c_lng":118.3188981},{"c_city":"Huangyan Taizhou","c_lat":28.6046553,"c_lng":121.0883178},{"c_city":"Huizhou","c_lat":23.1135399,"c_lng":114.4106581},{"c_city":"Islamabad","c_lat":27.6973654,"c_lng":106.9273377},{"c_city":"Istanbul","c_lat":41.180087,"c_lng":80.2809333},{"c_city":"iwami","c_lat":24.9160797,"c_lng":101.494747},{"c_city":"Jiamusi","c_lat":46.8137796,"c_lng":130.2847346},{"c_city":"Jian","c_lat":27.1138477,"c_lng":114.9920387},{"c_city":"Jiayuguan","c_lat":39.8023973,"c_lng":98.2816346},{"c_city":"JIDA","c_lat":29.761091,"c_lng":97.707932},{"c_city":"Jieyang Chaoshan","c_lat":23.5479995,"c_lng":116.3795009},{"c_city":"Jilin","c_lat":43.8719883,"c_lng":126.564544},{"c_city":"JiNan Yaoqiang","c_lat":36.8247419,"c_lng":117.1914825},{"c_city":"JINCHANG","c_lat":38.5160718,"c_lng":102.2081263},{"c_city":"Jingdezhan","c_lat":29.3035628,"c_lng":117.1865226},{"c_city":"Jinggangshan","c_lat":26.6331495,"c_lng":114.1254392},{"c_city":"Jingzhou","c_lat":41.1308789,"c_lng":121.1477487},{"c_city":"Jingzhou Shashi","c_lat":30.3257227,"c_lng":112.4241093},{"c_city":"Jining Qufu","c_lat":35.4021217,"c_lng":116.6007976},{"c_city":"Jiujiang Lushan","c_lat":29.7196395,"c_lng":115.999848},{"c_city":"Jiuzhaigou","c_lat":33.3174465,"c_lng":103.9340438},{"c_city":"Jixi","c_lat":45.3215399,"c_lng":130.9417673},{"c_city":"Kahului","c_lat":44.3130444,"c_lng":86.0875024},{"c_city":"Kailihuangping","c_lat":26.566867,"c_lng":107.981212},{"c_city":"Kanas","c_lat":36.0536454,"c_lng":103.8416466},{"c_city":"Kapstadt Cape Town","c_lat":28.7713438,"c_lng":104.6256722},{"c_city":"Karachi","c_lat":23.0588878,"c_lng":112.4651531},{"c_city":"Karamay","c_lat":45.2039192,"c_lng":84.9269896},{"c_city":"Kashi","c_lat":39.5131106,"c_lng":76.0143428},{"c_city":"Kathmandu","c_lat":39.8759355,"c_lng":116.2051307},{"c_city":"KIMHAE ITNL","c_lat":42.0038759,"c_lng":122.844781},{"c_city":"King SALMON","c_lat":39.908142,"c_lng":116.297035},{"c_city":"KITAKYUSHU","c_lat":40.0132287,"c_lng":118.7054063},{"c_city":"KKM","c_lat":31.2171853,"c_lng":121.4549359},{"c_city":"KOCHI","c_lat":22.9110095,"c_lng":114.0773312},{"c_city":"Koeln Bonn","c_lat":23.1353892,"c_lng":113.237339},{"c_city":"Komatsu","c_lat":41.0911887,"c_lng":121.1567354},{"c_city":"Kona Keahole Kailua","c_lat":27.8351553,"c_lng":94.8247525},{"c_city":"Kopenhagen Kastrup","c_lat":41.8903971,"c_lng":123.4232283},{"c_city":"Kopenhagen Roskilde","c_lat":41.8903971,"c_lng":123.4232283},{"c_city":"Korla","c_lat":41.7054999,"c_lng":85.7094176},{"c_city":"KOTA Kinabalu","c_lat":22.2821478,"c_lng":114.1826773},{"c_city":"Krabi","c_lat":32.0072273,"c_lng":120.8710157},{"c_city":"Krasnojarsk","c_lat":30.6454507,"c_lng":104.0732732},{"c_city":"Kuala Lumpur","c_lat":26.0842476,"c_lng":119.3416833},{"c_city":"Kumamoto","c_lat":22.2944209,"c_lng":114.2135676},{"c_city":"Kunming Changshui","c_lat":25.0491531,"c_lng":102.7146011},{"c_city":"Kuqa","c_lat":41.7819329,"c_lng":83.4598068},{"c_city":"Lanzhou Zhongchuan","c_lat":36.3434861,"c_lng":104.0261693},{"c_city":"Laoag","c_lat":34.4469514,"c_lng":108.7714125},{"c_city":"Lhasa Gongga","c_lat":29.645554,"c_lng":91.140856},{"c_city":"Liancheng","c_lat":25.6041768,"c_lng":116.821448},{"c_city":"LIANGXIANG","c_lat":36.7835501,"c_lng":118.0856043},{"c_city":"Lianyungang","c_lat":34.601549,"c_lng":119.1738722},{"c_city":"Lijiang","c_lat":26.8753511,"c_lng":100.2296284},{"c_city":"LINCANG","c_lat":23.8878061,"c_lng":100.0926129},{"c_city":"Linxi","c_lat":24.3489714,"c_lng":102.238391},{"c_city":"Linyi","c_lat":35.0724091,"c_lng":118.3407682},{"c_city":"Linzhi","c_lat":29.6669406,"c_lng":94.3499855},{"c_city":"Liping","c_lat":26.1575135,"c_lng":109.0745905},{"c_city":"Liupanshui","c_lat":26.5918661,"c_lng":104.8520868},{"c_city":"Liuzhou Bailian","c_lat":24.3290534,"c_lng":109.4224018},{"c_city":"London Gatwick","c_lat":22.3202248,"c_lng":114.1818988},{"c_city":"London Heathrow","c_lat":22.3202248,"c_lng":114.1818988},{"c_city":"Longhua","c_lat":19.9053507,"c_lng":110.3352241},{"c_city":"Los Angeles","c_lat":23.1349344,"c_lng":113.3499388},{"c_city":"Luoding","c_lat":22.690984,"c_lng":111.4932421},{"c_city":"Luoyang","c_lat":34.6573678,"c_lng":112.4475248},{"c_city":"Luxemburg","c_lat":45.7498585,"c_lng":126.6113185},{"c_city":"Luzhou","c_lat":28.8959298,"c_lng":105.4439703},{"c_city":"LvLiang","c_lat":37.5273161,"c_lng":111.1431566},{"c_city":"Macau","c_lat":22.204118,"c_lng":113.5575191},{"c_city":"Madras","c_lat":38.4286386,"c_lng":112.7453827},{"c_city":"Madrid Barajas","c_lat":22.762812,"c_lng":108.4872569},{"c_city":"Madrid Torrejon","c_lat":22.762812,"c_lng":108.4872569},{"c_city":"MAGADAN","c_lat":45.7744357,"c_lng":126.6327944},{"c_city":"Magong","c_lat":24.0869567,"c_lng":121.973871},{"c_city":"Male","c_lat":28.0523199,"c_lng":115.5529968},{"c_city":"Malta","c_lat":25.927336,"c_lng":115.660583},{"c_city":"MANDALAY","c_lat":22.2998539,"c_lng":114.1853432},{"c_city":"Manila   Ninoy Aquin","c_lat":24.7012798,"c_lng":108.0708635},{"c_city":"Manzhouli","c_lat":21.2506901,"c_lng":110.5571269},{"c_city":"Matsumoto","c_lat":22.8582837,"c_lng":108.3406965},{"c_city":"MATSUYAMA","c_lat":42.268753,"c_lng":118.7571057},{"c_city":"Meixian","c_lat":24.3714914,"c_lng":116.1995435},{"c_city":"Melbourne","c_lat":35.5350236,"c_lng":105.7390041},{"c_city":"MianYang","c_lat":31.5047013,"c_lng":104.705519},{"c_city":"Milan Malpensa","c_lat":28.8649692,"c_lng":100.890687},{"c_city":"Miyazaki","c_lat":25.1918618,"c_lng":118.8083314},{"c_city":"MoHe","c_lat":52.9456586,"c_lng":122.7157208},{"c_city":"Molokai","c_lat":44.3130444,"c_lng":86.0875024},{"c_city":"Moskau Domodedovo","c_lat":43.7981258,"c_lng":87.616118},{"c_city":"Moskau Sheremetyevo","c_lat":43.7981258,"c_lng":87.616118},{"c_city":"Moskau Vnukovo","c_lat":43.7981258,"c_lng":87.616118},{"c_city":"MOSKOW","c_lat":43.7981258,"c_lng":87.616118},{"c_city":"Mudanjiang","c_lat":44.5885212,"c_lng":129.6080354},{"c_city":"Munich","c_lat":23.0286346,"c_lng":113.797177},{"c_city":"Muskrat Dam","c_lat":47.6791848,"c_lng":87.4078266},{"c_city":"Nagasaki","c_lat":22.0955403,"c_lng":110.1848814},{"c_city":"Nagoya Intl Airport","c_lat":30.161579,"c_lng":120.269966},{"c_city":"Nanchang","c_lat":28.7055064,"c_lng":115.8789055},{"c_city":"Nanchong","c_lat":30.8009652,"c_lng":106.105554},{"c_city":"NANJING DAXIAOCHANG","c_lat":32.0143983,"c_lng":118.8239659},{"c_city":"Nanjing Lukou","c_lat":32.0572355,"c_lng":118.7780744},{"c_city":"Nanning WuWei","c_lat":22.6517509,"c_lng":108.2274076},{"c_city":"Nantong Xingdong","c_lat":32.0146645,"c_lng":120.873801},{"c_city":"Nanyang Jiangying","c_lat":32.5078613,"c_lng":112.2848007},{"c_city":"New York John F. Ken","c_lat":22.5536733,"c_lng":114.1394472},{"c_city":"Newark New Jers","c_lat":34.4469514,"c_lng":108.7714125},{"c_city":"Ningbo Yueshe","c_lat":29.8143375,"c_lng":121.4821269},{"c_city":"Nischninovgorod","c_lat":45.7744357,"c_lng":126.6327944},{"c_city":"Noibai Airport","c_lat":39.232414,"c_lng":115.731293},{"c_city":"Okayama","c_lat":40.0502436,"c_lng":116.6169199},{"c_city":"Osaka Itami","c_lat":22.546226,"c_lng":114.1244448},{"c_city":"Osaka Kansai","c_lat":22.546226,"c_lng":114.1244448},{"c_city":"OSAN","c_lat":24.7501828,"c_lng":118.2732853},{"c_city":"Pangkalpinang Indonesia","c_lat":18.8854766,"c_lng":108.8308886},{"c_city":"Paris Ch. de Gaulle","c_lat":26.5878176,"c_lng":101.7242471},{"c_city":"Paris Le Bourget","c_lat":30.3148053,"c_lng":82.8471997},{"c_city":"Paris Orly","c_lat":26.5878176,"c_lng":101.7242471},{"c_city":"Pashkovsky","c_lat":45.7744357,"c_lng":126.6327944},{"c_city":"Penang","c_lat":24.4406045,"c_lng":118.2103149},{"c_city":"Perth","c_lat":37.5433171,"c_lng":121.4187091},{"c_city":"PGSN","c_lat":31.2246332,"c_lng":121.4728482},{"c_city":"Phnom Penh","c_lat":39.9392252,"c_lng":116.315294},{"c_city":"Phuket","c_lat":39.2045008,"c_lng":117.2037273},{"c_city":"Prag","c_lat":31.2096163,"c_lng":121.4092217},{"c_city":"Pulau Langkawi","c_lat":22.2821478,"c_lng":114.1826773},{"c_city":"Pyongyang Sunan","c_lat":29.6158873,"c_lng":106.4885028},{"c_city":"Qian Jiang","c_lat":29.5453708,"c_lng":108.6374124},{"c_city":"Qiemo","c_lat":38.1007094,"c_lng":85.5063656},{"c_city":"Qingdao Liuting","c_lat":36.2702524,"c_lng":120.4139956},{"c_city":"Qingyang Xifeng","c_lat":35.6772014,"c_lng":107.6736737},{"c_city":"Qiqihar","c_lat":47.3476998,"c_lng":123.9872889},{"c_city":"Quanzhou Jinjiang","c_lat":24.7296383,"c_lng":118.5586505},{"c_city":"Quzhou","c_lat":28.9569104,"c_lng":118.8758417},{"c_city":"Rangoon","c_lat":31.8344564,"c_lng":117.2800731},{"c_city":"RIKAZE","c_lat":29.26816,"c_lng":88.9560628},{"c_city":"SAGA","c_lat":24.4685309,"c_lng":118.0869009},{"c_city":"San Francisco","c_lat":25.06243,"c_lng":102.7404334},{"c_city":"Sankt Petersburg","c_lat":26.6906449,"c_lng":106.6595812},{"c_city":"Sao Paulo Guarulhos","c_lat":22.2883359,"c_lng":114.1507505},{"c_city":"Seattle Washington","c_lat":34.6523218,"c_lng":109.2179575},{"c_city":"Seletar Airport","c_lat":26.2583235,"c_lng":105.9617143},{"c_city":"Sendai","c_lat":26.4650963,"c_lng":118.200226},{"c_city":"Seoul Seoul Ab","c_lat":27.6131906,"c_lng":114.8610271},{"c_city":"Shandong Rizhao","c_lat":35.4202252,"c_lng":119.5071799},{"c_city":"Shanghai Dachang","c_lat":31.2491617,"c_lng":121.4878995},{"c_city":"Shanghai Hongqiao","c_lat":31.2491617,"c_lng":121.4878995},{"c_city":"Shanghai Longhua","c_lat":31.2491617,"c_lng":121.4878995},{"c_city":"Shanghai Pudong","c_lat":31.2201762,"c_lng":121.522004},{"c_city":"Shanhaiguan","c_lat":40.0328996,"c_lng":119.7136156},{"c_city":"Shanshan","c_lat":42.2917349,"c_lng":90.6165744},{"c_city":"Shanya Fenghuang","c_lat":28.0136335,"c_lng":109.5188821},{"c_city":"Shaxian","c_lat":26.4465059,"c_lng":117.818846},{"c_city":"SHENGDANDAO","c_lat":22.5295237,"c_lng":113.3739205},{"c_city":"ShenNongJia","c_lat":31.2093163,"c_lng":112.4105622},{"c_city":"ShenYang TaoXian","c_lat":41.6463553,"c_lng":123.5046463},{"c_city":"Shenzhen Baoan","c_lat":22.7074328,"c_lng":113.9300131},{"c_city":"Shijiazhuang","c_lat":38.0489583,"c_lng":114.5220818},{"c_city":"SHONAI","c_lat":25.5318109,"c_lng":113.6881346},{"c_city":"Sibu","c_lat":22.2821478,"c_lng":114.1826773},{"c_city":"Simao","c_lat":22.7391331,"c_lng":100.8552531},{"c_city":"Singapore","c_lat":26.2583235,"c_lng":105.9617143},{"c_city":"Sonderborg","c_lat":31.8920309,"c_lng":78.9026555},{"c_city":"SOYOKA","c_lat":29.664305,"c_lng":121.3797},{"c_city":"Stockholm Arlanda","c_lat":30.4641467,"c_lng":106.6405007},{"c_city":"Subic Bay","c_lat":34.4469514,"c_lng":108.7714125},{"c_city":"Sultan Abdul Aziz Shah","c_lat":22.2821478,"c_lng":114.1826773},{"c_city":"SUNGSHAN AIRPORT","c_lat":42.268753,"c_lng":118.7571057},{"c_city":"Surabaya","c_lat":35.6407407,"c_lng":117.3452642},{"c_city":"Tacheng","c_lat":46.8113671,"c_lng":83.1901277},{"c_city":"TAIPEI INTL AIRPORT","c_lat":30.597507,"c_lng":114.277985},{"c_city":"Taiyuan Wusu","c_lat":37.8902771,"c_lng":112.5508636},{"c_city":"TAIZHONG","c_lat":26.0911935,"c_lng":119.3376333},{"c_city":"Takamatsu","c_lat":24.027922,"c_lng":112.024429},{"c_city":"tangshan","c_lat":39.6505309,"c_lng":118.1834506},{"c_city":"Tehran","c_lat":27.2393557,"c_lng":111.4917696},{"c_city":"Tengchong","c_lat":25.2799781,"c_lng":98.4999883},{"c_city":"Tianjin Binhai","c_lat":39.1439299,"c_lng":117.2108131},{"c_city":"TIANSHUI","c_lat":38.1032673,"c_lng":102.4576246},{"c_city":"TOKUSHIMA","c_lat":22.8140895,"c_lng":114.1320122},{"c_city":"Tokyo Haneda","c_lat":39.510688,"c_lng":116.5984345},{"c_city":"Tokyo Narita","c_lat":39.510688,"c_lng":116.5984345},{"c_city":"TONGDUCHEON","c_lat":23.4525518,"c_lng":108.9854043},{"c_city":"Tonghua","c_lat":41.7363971,"c_lng":125.9426501},{"c_city":"Tongliao","c_lat":43.6337561,"c_lng":122.2603633},{"c_city":"Tongren Daxing","c_lat":27.6749027,"c_lng":109.168558},{"c_city":"Toronto","c_lat":34.5977407,"c_lng":119.1869615},{"c_city":"Toyama","c_lat":46.126064,"c_lng":131.787094},{"c_city":"Tulufan","c_lat":42.6789248,"c_lng":89.2660255},{"c_city":"Ulan Bator","c_lat":22.5377098,"c_lng":113.9974251},{"c_city":"Ulanhot","c_lat":46.1169436,"c_lng":122.0815338},{"c_city":"UNKNOW","c_lat":31.9081437,"c_lng":120.2647905},{"c_city":"Urumqi","c_lat":43.8403803,"c_lng":87.5649877},{"c_city":"Utapao","c_lat":25.223669,"c_lng":110.175842},{"c_city":"Vancouver","c_lat":32.0976677,"c_lng":112.2339152},{"c_city":"VENEZIA TESSERA","c_lat":23.0922637,"c_lng":114.4431113},{"c_city":"Vientiane","c_lat":21.1978416,"c_lng":110.4023667},{"c_city":"Wanxian","c_lat":30.8339705,"c_lng":108.3615093},{"c_city":"Warschau","c_lat":30.1938062,"c_lng":120.1678376},{"c_city":"Weifang","c_lat":36.7161149,"c_lng":119.1426338},{"c_city":"Weihai","c_lat":37.5287871,"c_lng":122.0939584},{"c_city":"WEN SHAN","c_lat":23.4160095,"c_lng":104.0309398},{"c_city":"Wien Schwechat","c_lat":28.5467108,"c_lng":115.9478342},{"c_city":"Wu Hai","c_lat":23.7751921,"c_lng":108.4115597},{"c_city":"WuDangShan","c_lat":38.267799,"c_lng":101.968346},{"c_city":"WuHan TianHe","c_lat":30.5810841,"c_lng":114.3162001},{"c_city":"Wuhu","c_lat":31.3660198,"c_lng":118.3841084},{"c_city":"WunZHou Yongqiang","c_lat":27.9226883,"c_lng":120.8301396},{"c_city":"Wuwei","c_lat":37.9331721,"c_lng":102.6401473},{"c_city":"Wuxi","c_lat":31.5700375,"c_lng":120.3054559},{"c_city":"Wuyishan","c_lat":27.7481352,"c_lng":118.0115426},{"c_city":"Wuzhou","c_lat":23.4853946,"c_lng":111.305472},{"c_city":"Xiamen Gaoqi","c_lat":24.5543583,"c_lng":118.1170338},{"c_city":"XiAn Xianyang","c_lat":34.341568,"c_lng":108.940174},{"c_city":"Xiangyang Liuji","c_lat":32.1576746,"c_lng":112.3110837},{"c_city":"Xichang","c_lat":27.8633774,"c_lng":102.1178879},{"c_city":"Xijiao","c_lat":31.9081437,"c_lng":120.2647905},{"c_city":"Xilinhot","c_lat":44.0789611,"c_lng":116.1369483},{"c_city":"Xingning","c_lat":22.9245308,"c_lng":108.4176207},{"c_city":"Xingtai","c_lat":37.0695312,"c_lng":114.5204868},{"c_city":"XingYi","c_lat":25.0025438,"c_lng":104.8578372},{"c_city":"Xining","c_lat":36.6407386,"c_lng":101.767921},{"c_city":"Xishuangbanna","c_lat":22.009433,"c_lng":100.8030383},{"c_city":"XiZang Ali","c_lat":32.1054717,"c_lng":80.0618479},{"c_city":"Xuzhou Guanyin","c_lat":34.2715534,"c_lng":117.1881066},{"c_city":"Yamagata","c_lat":31.6611,"c_lng":120.7611955},{"c_city":"YAMAGUCHI UBE","c_lat":36.2389857,"c_lng":117.2788574},{"c_city":"Yanan","c_lat":36.6033204,"c_lng":109.5005098},{"c_city":"Yancheng","c_lat":33.3798619,"c_lng":120.1488718},{"c_city":"Yangjiang","c_lat":21.8715173,"c_lng":111.9770098},{"c_city":"Yangzhou","c_lat":32.39421,"c_lng":119.412966},{"c_city":"Yanji","c_lat":43.0596666,"c_lng":129.4713015},{"c_city":"Yantai Penglai","c_lat":37.6611604,"c_lng":120.8626943},{"c_city":"YAPUDAO","c_lat":31.4781552,"c_lng":120.1029877},{"c_city":"YAZHUANG","c_lat":36.9813844,"c_lng":118.4094044},{"c_city":"Yekaterinburg Koltsovo","c_lat":22.4908016,"c_lng":107.2069307},{"c_city":"Yibin","c_lat":28.7696748,"c_lng":104.6330191},{"c_city":"Yichang Sanxia","c_lat":30.7327578,"c_lng":111.3109811},{"c_city":"YiChun","c_lat":27.8579156,"c_lng":114.4009134},{"c_city":"Yilan","c_lat":31.4084474,"c_lng":121.4899025},{"c_city":"Yinchuan","c_lat":38.502621,"c_lng":106.2064786},{"c_city":"Yingkou","c_lat":40.6686511,"c_lng":122.2333914},{"c_city":"YiNing","c_lat":44.0203558,"c_lng":81.2890481},{"c_city":"Yiwu","c_lat":29.3064439,"c_lng":120.0672956},{"c_city":"YONGZHOU","c_lat":26.1023113,"c_lng":111.5639187},{"c_city":"Yuanmou","c_lat":25.7831955,"c_lng":101.8705108},{"c_city":"YUEKEQUN","c_lat":38.9314631,"c_lng":121.6398029},{"c_city":"Yulin Xisha","c_lat":38.2794392,"c_lng":109.7459257},{"c_city":"Yuncheng","c_lat":35.0388595,"c_lng":111.0068537},{"c_city":"YUSHU","c_lat":33.0062399,"c_lng":97.0133161},{"c_city":"Zhangjiajie","c_lat":29.1248894,"c_lng":110.4816202},{"c_city":"Zhanjiang","c_lat":21.2574631,"c_lng":110.3650673},{"c_city":"Zhaotong","c_lat":27.340633,"c_lng":103.7250207},{"c_city":"Zhengzhou","c_lat":34.7566101,"c_lng":113.6496438},{"c_city":"zhongwei","c_lat":37.3213231,"c_lng":106.1554813},{"c_city":"ZhouShan Putuoshan","c_lat":29.9805747,"c_lng":122.3880198},{"c_city":"Zhuhai Sanzao","c_lat":22.0533511,"c_lng":113.3552073},{"c_city":"Zuerich","c_lat":35.7719346,"c_lng":115.0378154},{"c_city":"Zunyi","c_lat":27.6999614,"c_lng":106.9312603},{"c_city":"张家口","c_lat":40.8111885,"c_lng":114.8937815},{"c_city":"成都温江机场","c_lat":30.7068608,"c_lng":103.9655057},{"c_city":"皇后镇机场","c_lat":32.0444016,"c_lng":118.7895536},{"c_city":"阿尔山伊尔施机场","c_lat":47.1636963,"c_lng":120.3575339},{"c_city":"阿拉善","c_lat":41.207066,"c_lng":113.6475125},{"c_city":"YIXING","c_lat":31.3404204996,"c_lng":119.8234633298}]